,City,Lat,Lon,Max Temp,Humidity,Cloudiness,Wind Speed,Country,Date
0,albany,42.6001,-73.9662,289.45,69,0,2.61,US,1662084006
1,arraial do cabo,-22.9661,-42.0278,293.03,79,0,11.42,BR,1662084078
2,rikitea,-23.1203,-134.9692,295.7,70,1,4.51,PF,1662084079
3,chabahar,25.2919,60.643,299.74,83,32,2.16,IR,1662084079
4,lavrentiya,65.5833,-171,279.66,83,100,6.4,RU,1662084080
5,puerto ayora,-0.7393,-90.3518,294.01,91,71,0.89,EC,1662084080
6,pisco,-13.7,-76.2167,288.72,79,0,1.17,PE,1662084080
7,rio grande,-32.035,-52.0986,289.79,94,100,2.3,BR,1662083931
8,betare oya,5.6,14.0833,291.43,99,100,1.78,CM,1662084081
9,mys shmidta,NA,NA,NA,NA,NA,NA,NA,NA
10,shima,24.4478,117.8111,302.99,64,37,3.28,CN,1662084081
11,kuche,NA,NA,NA,NA,NA,NA,NA,NA
12,cherskiy,68.75,161.3,284.55,40,51,3.12,RU,1662084084
13,kudahuvadhoo,2.6708,72.8944,300.97,73,89,8.96,MV,1662084085
14,ondjiva,-17.0667,15.7333,290.71,28,4,3.41,AO,1662084085
15,thompson,55.7435,-97.8558,291.24,82,75,3.09,CA,1662084085
16,naze,28.3667,129.4833,302.66,84,68,9.72,JP,1662084086
17,punta arenas,-53.15,-70.9167,277.1,86,85,5.38,CL,1662084086
18,vaini,-21.2,-175.2,294.42,65,1,4,TO,1662084086
19,illoqqortoormiut,NA,NA,NA,NA,NA,NA,NA,NA
20,gizo,-8.103,156.8419,301.67,71,98,1.23,SB,1662084087
21,khipro,25.8285,69.3772,300.12,81,16,5.16,PK,1662084087
22,busselton,-33.65,115.3333,288.09,63,100,6.78,AU,1662084088
23,jamestown,42.097,-79.2353,288.95,66,0,0.45,US,1662084088
24,sentyabrskiy,NA,NA,NA,NA,NA,NA,NA,NA
25,cabedelo,-6.9811,-34.8339,296.52,84,19,5.99,BR,1662084089
26,chokurdakh,70.6333,147.9167,281.64,50,56,6.96,RU,1662084089
27,kropotkin,45.4375,40.5756,293.17,67,0,2.52,RU,1662084089
28,bethel,41.3712,-73.414,294.68,64,3,2.39,US,1662084090
29,jequitinhonha,-16.4339,-41.0033,290.88,80,79,1.08,BR,1662084090
30,nishihara,26.1842,127.7558,303.75,74,40,8.75,JP,1662084090
31,abha,18.2164,42.5053,291.35,33,0,3.42,SA,1662084091
32,mataura,-46.1927,168.8643,287.3,82,85,1.05,NZ,1662084091
33,hithadhoo,-0.6,73.0833,300.59,72,5,7.78,MV,1662084092
34,ushuaia,-54.8,-68.3,273.65,96,58,2.31,AR,1662084081
35,cape town,-33.9258,18.4232,287.66,75,75,6.69,ZA,1662083878
36,khatanga,71.9667,102.5,276,97,100,6.84,RU,1662084092
37,barrow,71.2906,-156.7887,277.16,93,100,7.72,US,1662084093
38,port hawkesbury,45.6169,-61.3485,292.92,81,0,0.45,CA,1662084023
39,norman wells,65.282,-126.8329,292.49,40,99,1.41,CA,1662084093
40,dikson,73.5069,80.5464,277.72,75,100,6.36,RU,1662084094
41,yellowknife,62.456,-114.3525,286.44,71,75,4.12,CA,1662083700
42,chagda,NA,NA,NA,NA,NA,NA,NA,NA
43,sobolevo,54.4299,31.8996,276.54,98,29,3.7,RU,1662084094
44,grande-riviere,NA,NA,NA,NA,NA,NA,NA,NA
45,hasaki,35.7333,140.8333,298.31,93,95,8.32,JP,1662084095
46,georgetown,5.4112,100.3354,302.53,79,40,1.54,MY,1662084016
47,taolanaro,NA,NA,NA,NA,NA,NA,NA,NA
48,hermanus,-34.4187,19.2345,282.48,79,14,4.97,ZA,1662084095
49,asau,46.4333,26.4,285.66,96,100,1.42,RO,1662084096
50,barguzin,53.6167,109.6167,288.97,80,100,4.58,RU,1662084096
51,east london,-33.0153,27.9116,296.24,47,87,4.44,ZA,1662084033
52,victoria,22.2855,114.1577,303.29,67,100,7.6,HK,1662084012
53,iqaluit,63.7506,-68.5145,277,100,100,1.03,CA,1662084097
54,hilo,19.7297,-155.09,301.64,93,44,0.89,US,1662083841
55,chimbote,-9.0853,-78.5783,288.86,85,63,4.89,PE,1662084097
56,luderitz,-26.6481,15.1594,285.96,92,0,2.95,NA,1662084098
57,tasiilaq,65.6145,-37.6368,279.24,70,100,2.07,GL,1662084098
58,pevek,69.7008,170.3133,274.15,76,78,0.93,RU,1662084099
59,burica,NA,NA,NA,NA,NA,NA,NA,NA
60,hobart,-42.8794,147.3294,285.96,61,40,7.72,AU,1662084012
61,bengkulu,-3.8004,102.2655,297.65,90,100,5.85,ID,1662084099
62,cidreira,-30.1811,-50.2056,289.33,91,81,5.78,BR,1662084100
63,fairbanks,64.8378,-147.7164,288.34,68,100,3.59,US,1662084100
64,yumen,40.2833,97.2,294.59,26,52,8.46,CN,1662084100
65,tuktoyaktuk,69.4541,-133.0374,287.59,61,99,4.11,CA,1662084101
66,codrington,-38.2667,141.9667,284.61,58,76,6.09,AU,1662084101
67,vardo,70.3705,31.1107,280.14,93,75,9.77,NO,1662084102
68,kapaa,22.0752,-159.319,302.14,72,25,3.13,US,1662084102
69,qaanaaq,77.484,-69.3632,272.09,70,77,3.11,GL,1662084102
70,kruisfontein,-34.0033,24.7314,287.53,85,99,5.13,ZA,1662084103
71,pacasmayo,-7.4006,-79.5714,289.03,87,50,4.79,PE,1662084103
72,nikolskoye,59.7035,30.7861,281.92,89,100,4.46,RU,1662084103
73,kalomo,NA,NA,NA,NA,NA,NA,NA,NA
74,carnarvon,-24.8667,113.6333,291.19,94,75,3.6,AU,1662084104
75,lasa,46.6166,10.7002,285.48,93,17,1.14,IT,1662084104
76,ponta do sol,32.6667,-17.1,296.88,82,44,1.09,PT,1662084105
77,goedereede,51.8175,3.9806,290.38,60,100,0.89,NL,1662084105
78,mar del plata,-38.0023,-57.5575,282.64,85,0,5.36,AR,1662083919
79,dhidhdhoo,6.8833,73.1,299.66,82,100,8.35,MV,1662084106
80,faanui,-16.4833,-151.75,299.23,67,2,6.11,PF,1662084106
81,flinders,-34.5833,150.8552,288.36,74,100,5.92,AU,1662084106
82,haines junction,60.7522,-137.5108,281.73,82,100,3.52,CA,1662084107
83,kaupanger,61.1845,7.2404,285.16,94,10,0.84,NO,1662084107
84,mokrousovo,55.8103,66.7653,288.16,85,92,4.5,RU,1662084107
85,blind river,46.1834,-82.9582,289.47,84,89,3.33,CA,1662084108
86,san carlos de bariloche,-41.1456,-71.3082,278.72,72,15,2.52,AR,1662084108
87,puerto del rosario,28.5004,-13.8627,297.01,78,0,5.66,ES,1662084109
88,pochutla,15.7432,-96.4661,298.61,92,100,1.18,MX,1662084109
89,camacha,33.0833,-16.3333,293.83,78,40,2.06,PT,1662084109
90,port alfred,-33.5906,26.891,289.92,79,66,2.68,ZA,1662084110
91,eureka,40.8021,-124.1637,290.48,93,18,1.34,US,1662083934
92,harindanga,22.0383,88.3214,302.8,76,100,4.85,IN,1662084110
93,clyde river,70.4692,-68.5914,275.28,100,100,8.75,CA,1662084111
94,new norfolk,-42.7826,147.0587,285.88,63,64,1.34,AU,1662084111
95,airai,-8.9266,125.4092,297.54,40,2,2.59,TL,1662084111
96,saint-joseph,-21.3667,55.6167,291.36,73,46,3.74,RE,1662084112
97,bluff,-46.6,168.3333,287.48,88,96,2.01,NZ,1662084112
98,port blair,11.6667,92.75,301.8,74,30,2.51,IN,1662084112
99,ribeira grande,38.5167,-28.7,295.97,78,99,5.56,PT,1662084113
100,yar-sale,66.8333,70.8333,279.89,69,100,1.69,RU,1662084113
101,avarua,-21.2078,-159.775,299.18,83,75,3.09,CK,1662084114
102,dali,25.7,100.1833,291.16,94,99,1.37,CN,1662084114
103,ust-koksa,50.2696,85.6108,288.04,61,30,0.63,RU,1662084114
104,port hardy,50.6996,-127.4199,289.87,87,30,4.77,CA,1662084007
105,dunedin,-45.8742,170.5036,287.48,76,100,0.89,NZ,1662084115
106,dudesti,44.9,27.4333,290.68,53,100,7.43,RO,1662084115
107,olinda,-8.0089,-34.8553,298,78,75,4.12,BR,1662083893
108,bida,9.0833,6.0167,295.21,98,100,1.2,NG,1662084116
109,huarmey,-10.0681,-78.1522,289.24,82,41,5.03,PE,1662084116
110,tiksi,71.6872,128.8694,277.25,86,100,11.75,RU,1662084116
111,rock sound,24.9,-76.2,301.77,73,3,4.84,BS,1662084117
112,sopelana,43.3789,-2.9831,293.19,82,100,1.03,ES,1662084117
113,ocampo,21.65,-101.5,290.08,66,87,9.34,MX,1662084118
114,tessalit,20.1986,1.0114,304.1,41,21,5.38,ML,1662084118
115,nisia floresta,-6.0911,-35.2086,295.6,90,71,3.91,BR,1662084118
116,fortuna,40.5982,-124.1573,289.78,90,100,3.09,US,1662084119
117,bogale,16.2833,95.4,301.93,75,20,2.6,MM,1662084119
118,copala,16.65,-98.9833,299.38,90,100,3.12,MX,1662084119
119,ust-bolsheretsk,NA,NA,NA,NA,NA,NA,NA,NA
120,atuona,-9.8,-139.0333,298.2,68,1,9.67,PF,1662084120
121,balarampur,23.1167,86.2167,300.2,81,100,1.74,IN,1662084120
122,port elizabeth,-33.918,25.5701,288.88,90,96,1.79,ZA,1662084121
123,suifenhe,44.4,131.1667,292.61,40,0,1.93,CN,1662084121
124,morondava,-20.2833,44.2833,290.61,58,0,4.37,MG,1662084122
125,smithers,54.7804,-127.1743,293.28,55,45,1.75,CA,1662084006
126,mentakab,3.4865,102.3516,300.32,81,70,0.27,MY,1662084122
127,bilibino,68.0546,166.4372,282.29,43,5,2.03,RU,1662084123
128,alice,27.7523,-98.0697,301.77,83,0,2.57,US,1662084123
129,bonavista,48.6499,-53.1147,291.4,96,68,10.65,CA,1662084014
130,cockburn town,21.4612,-71.1419,301.31,75,3,8.64,TC,1662084124
131,sumenep,-7.0167,113.8667,302.41,65,0,5.41,ID,1662084124
132,saldanha,-33.0117,17.9442,286.92,68,100,5.32,ZA,1662084125
133,souillac,-20.5167,57.5167,293.36,68,20,4.12,MU,1662083959
134,vila,42.0304,-8.1588,285.76,86,95,0.31,PT,1662084125
135,port-gentil,-0.7193,8.7815,297.09,84,100,5.54,GA,1662084126
136,puerto escondido,15.85,-97.0667,300.24,82,100,1.33,MX,1662083836
137,bambous virieux,-20.3428,57.7575,293.29,68,40,3.09,MU,1662084126
138,seminole,28.7086,-81.2081,298.72,94,0,2.57,US,1662084127
139,ahipara,-35.1667,173.1667,288.96,54,20,2.17,NZ,1662084127
140,whitianga,-36.8333,175.7,287.92,57,86,3.22,NZ,1662084127
141,luwuk,-0.9516,122.7875,302.72,65,37,2.59,ID,1662084128
142,phan rang,NA,NA,NA,NA,NA,NA,NA,NA
143,leningradskiy,69.3833,178.4167,273.39,96,92,5.19,RU,1662084128
144,sikasso,10.9167,-7,294.52,97,91,1.08,ML,1662084129
145,san matias,-16.3667,-58.4,301.3,26,0,2.65,BO,1662084129
146,torbay,47.6666,-52.7314,294.42,96,100,8.23,CA,1662084129
147,scottsburgh,NA,NA,NA,NA,NA,NA,NA,NA
148,cayenne,4.9333,-52.3333,297.17,94,0,1.03,GF,1662084006
149,tuatapere,-46.1333,167.6833,287.09,71,37,2.01,NZ,1662084130
150,saskylakh,71.9167,114.0833,278.03,76,100,9.83,RU,1662084131
151,vila do maio,15.1333,-23.2167,299.59,83,91,7.18,CV,1662084131
152,kati,12.7441,-8.0726,294.3,96,99,0.66,ML,1662084131
153,hvammstangi,NA,NA,NA,NA,NA,NA,NA,NA
154,deniliquin,-35.5333,144.9667,286.76,48,10,6.59,AU,1662084132
155,longyearbyen,78.2186,15.6401,279.06,81,75,1.54,SJ,1662084132
156,narsaq,60.9167,-46.05,282.27,55,0,1.37,GL,1662084133
157,hamilton,39.1834,-84.5333,297.82,78,0,1.54,US,1662083499
158,chuy,-33.6971,-53.4616,286.09,98,100,2.41,UY,1662084133
159,los llanos de aridane,28.6585,-17.9182,294.01,88,20,3.09,ES,1662084134
160,henties bay,-22.116,14.2845,285.67,94,1,2.39,NA,1662084134
161,skelleftea,64.7507,20.9528,278.35,100,9,4.63,SE,1662084134
162,inongo,-1.95,18.2667,292.72,100,100,2.64,CD,1662084135
163,halifax,44.6453,-63.5724,293.4,86,2,6.17,CA,1662083850
164,aklavik,68.2191,-135.0107,291.38,52,100,3.12,CA,1662084135
165,unye,NA,NA,NA,NA,NA,NA,NA,NA
166,sur,22.5667,59.5289,301.91,61,100,1.16,OM,1662084136
167,provideniya,64.3833,-173.3,283.35,87,100,5,RU,1662084136
168,nanortalik,60.1432,-45.2371,281.41,70,1,5.19,GL,1662084137
169,berlevag,70.8578,29.0864,280.15,87,100,7.2,NO,1662084137
170,arona,28.0996,-16.681,296.14,88,0,5.14,ES,1662084137
171,geraldton,-28.7667,114.6,290.38,34,100,9.77,AU,1662084138
172,arlit,18.7369,7.3853,305.43,36,89,3.85,NE,1662084138
173,samokov,42.3333,23.55,290.07,94,100,0.97,BG,1662084138
174,severo-kurilsk,50.6789,156.125,285.39,80,100,3.8,RU,1662084139
175,kodiak,57.79,-152.4072,284.71,83,100,0.59,US,1662084139
176,nizhneyansk,NA,NA,NA,NA,NA,NA,NA,NA
177,carutapera,-1.195,-46.02,298.05,83,23,2.72,BR,1662084140
178,dauphin,51.1494,-100.0502,300.23,50,20,8.23,CA,1662084140
179,muros,42.7762,-9.0603,290.2,93,18,1.02,ES,1662084141
180,wana,32.2989,69.5725,297.56,57,0,0.7,PK,1662084141
181,cap malheureux,-19.9842,57.6142,294.15,66,7,5.36,MU,1662084081
182,sioux lookout,50.1001,-91.917,293.88,63,5,3.74,CA,1662084141
183,constitucion,-35.3333,-72.4167,282.7,80,0,4.14,CL,1662084142
184,aban,56.67,96.06,281.16,99,100,3.13,RU,1662084142
185,biggar,55.6167,-3.5167,284.42,95,0,1.36,GB,1662083990
186,san patricio,28.017,-97.5169,303.62,72,99,3.86,US,1662084143
187,gweta,-20.1833,25.2333,283.68,46,0,4.04,BW,1662084143
188,yangshan,28.7615,115.0287,299.18,55,11,2.43,CN,1662084144
189,khandyga,62.6667,135.6,281.1,81,100,2.84,RU,1662084144
190,fare,-16.7,-151.0167,299.18,68,0,6.1,PF,1662084144
191,barentsburg,NA,NA,NA,NA,NA,NA,NA,NA
192,strelice,49.1522,16.504,286.5,75,0,2.06,CZ,1662084145
193,saint-philippe,-21.3585,55.7679,291.92,72,51,5.4,RE,1662084145
194,upernavik,72.7868,-56.1549,276.64,68,100,4.06,GL,1662084146
195,lakes entrance,-37.8811,147.981,285.46,52,48,6.74,AU,1662084146
196,cabinda,-5.55,12.2,295.91,87,95,3.97,AO,1662084146
197,kachikau,NA,NA,NA,NA,NA,NA,NA,NA
198,grand gaube,-20.0064,57.6608,293.37,66,5,5.56,MU,1662084147
199,poum,-20.2333,164.0167,296.92,70,52,3.13,NC,1662084147
200,young,-32.6833,-57.6333,287.42,99,100,2.31,UY,1662084148
201,loandjili,-4.7561,11.8578,296.02,86,88,3.5,CG,1662084148
202,butaritari,3.0707,172.7902,300.55,77,17,6.92,KI,1662084148
203,urubamba,-13.3047,-72.1158,287.65,79,29,2.74,PE,1662084149
204,deputatskiy,69.3,139.9,275.41,89,100,1.93,RU,1662084149
205,do rud,NA,NA,NA,NA,NA,NA,NA,NA
206,ruatoria,NA,NA,NA,NA,NA,NA,NA,NA
207,tres coracoes,-21.6969,-45.2533,285.51,45,0,2.24,BR,1662084150
208,vostok,46.4856,135.8833,288.63,48,0,4.43,RU,1662084150
209,isangel,-19.55,169.2667,297.87,67,50,7.06,VU,1662084150
210,padang,-0.9492,100.3543,298.18,89,100,2.95,ID,1662083927
211,nouakchott,18.0858,-15.9785,300.11,82,100,2.74,MR,1662084151
212,jalu,29.0331,21.5482,299.82,50,0,5.84,LY,1662084151
213,laguna,38.421,-121.4238,312.46,21,0,2.57,US,1662084095
214,esperance,-33.8667,121.9,287.95,68,100,6.78,AU,1662084152
215,bocaiuva,-17.1078,-43.815,287.66,67,0,3.13,BR,1662084152
216,jevargi,17.0167,76.7667,298.45,83,51,3.46,IN,1662084153
217,edinburg,55.9521,-3.1965,285.25,94,0,0.51,GB,1662084153
218,hovd,48.0056,91.6419,290.47,30,2,0.8,MN,1662084153
219,killorglin,52.1,-9.7833,285.06,93,77,1.39,IE,1662084154
220,saryshagan,NA,NA,NA,NA,NA,NA,NA,NA
221,okha,53.5739,142.9478,289.27,88,97,1.59,RU,1662084154
222,truckee,39.328,-120.1833,306.33,23,0,2.68,US,1662084098
223,brooks,50.5834,-111.8851,294.84,42,44,6.44,CA,1662084155
224,honningsvag,70.9821,25.9704,280.01,87,100,9.26,NO,1662084155
225,mocuba,-16.8392,36.9856,290.2,76,74,1.34,MZ,1662084156
226,kavieng,-2.5744,150.7967,302.19,68,100,5.75,PG,1662084156
227,atar,20.5169,-13.0499,302.04,57,47,1.59,MR,1662084156
228,lompoc,34.6391,-120.4579,303.23,76,0,3.6,US,1662084157
229,cagayan de tawi-tawi,NA,NA,NA,NA,NA,NA,NA,NA
230,klaksvik,62.2266,-6.589,285.66,98,100,8.13,FO,1662084157
231,launceston,-41.45,147.1667,286.27,53,7,2.57,AU,1662083860
232,hami,42.8,93.45,299.15,19,1,1.17,CN,1662084158
233,robore,-18.3333,-59.75,297.68,34,0,1.08,BO,1662084158
234,seymchan,62.8833,152.4333,293.7,45,100,7.29,RU,1662084158
235,chicama,-7.8447,-79.1469,290.08,80,88,2.83,PE,1662084159
236,bredasdorp,-34.5322,20.0403,282.33,92,4,2.66,ZA,1662084159
237,bud,39.447,-86.1758,297,83,100,1.45,US,1662084160
238,kangaatsiaq,68.3065,-53.4641,278.62,75,100,6.51,GL,1662084160
239,anadyr,64.75,177.4833,282.43,81,75,7,RU,1662084160
240,peniche,39.3558,-9.3811,292.2,95,64,3.11,PT,1662084161
241,bicester,51.9,-1.1536,289.47,55,96,0.45,GB,1662084161
242,lebu,-37.6167,-73.65,281.55,89,5,7.29,CL,1662084161
243,tsihombe,NA,NA,NA,NA,NA,NA,NA,NA
244,manggar,-2.8833,108.2667,302.24,72,99,5.31,ID,1662084162
245,talnakh,69.4865,88.3972,280.22,72,24,0.61,RU,1662084162
246,komsomolets,53.7453,62.0708,294.49,35,100,3.82,KZ,1662084251
247,yazd,31.8972,54.3675,294.48,13,8,0.96,IR,1662084251
248,la pintada,5.7487,-75.6063,297.94,98,98,0.37,CO,1662084252
249,teya,60.3778,92.6267,281.01,70,94,1.3,RU,1662084252
250,flin flon,54.7682,-101.865,287.04,63,4,9.6,CA,1662084006
251,soyo,-6.1349,12.3689,295.68,87,100,4.06,AO,1662084252
252,roseburg,43.2165,-123.3417,306.21,32,0,2.57,US,1662084253
253,west bay,19.3667,-81.4167,300.97,88,40,7.2,KY,1662084253
254,castro,-24.7911,-50.0119,286.48,73,0,1.79,BR,1662084254
255,vikhorevka,56.1201,101.1636,281.92,98,100,1.66,RU,1662084254
256,voi,-3.3945,38.563,292.02,79,69,5.25,KE,1662084255
257,oranjemund,-28.55,16.4333,284.99,94,16,0.82,NA,1662084255
258,mirador,-6.3708,-44.3631,296.04,39,2,1.82,BR,1662084255
259,solovetskiy,NA,NA,NA,NA,NA,NA,NA,NA
260,kiama,-34.6833,150.8667,288.71,74,100,1.34,AU,1662084256
261,saint-pierre,-21.3393,55.4781,293.1,77,100,2.57,RE,1662084256
262,okhotsk,59.3833,143.3,287.3,88,86,2.93,RU,1662084257
263,amapa,1,-52,295.43,98,100,0.85,BR,1662084257
264,lata,40.1629,-8.3327,290.2,89,100,1.48,PT,1662084257
265,sao joao da barra,-21.6403,-41.0511,293.72,71,0,7.45,BR,1662084258
266,xining,36.6167,101.7667,284.5,76,100,0.96,CN,1662084012
267,marsh harbour,26.5412,-77.0636,301.82,71,7,2.71,BS,1662084010
268,tabarqah,NA,NA,NA,NA,NA,NA,NA,NA
269,westport,41.1415,-73.3579,297.35,56,2,3.13,US,1662083965
270,meulaboh,4.1363,96.1285,298.67,80,95,1.03,ID,1662084259
271,karaul,NA,NA,NA,NA,NA,NA,NA,NA
272,kirakira,-10.4544,161.9205,300.84,80,95,4.86,SB,1662084259
273,maniitsoq,65.4167,-52.9,280.97,79,100,6.86,GL,1662084260
274,muyezerskiy,63.9333,31.65,278.91,79,100,6.55,RU,1662084260
275,kupang,-10.1667,123.5833,304.47,58,20,6.69,ID,1662084261
276,ahuimanu,21.4447,-157.8378,303.99,64,20,6.69,US,1662084261
277,ugoofaaru,5.6667,73,299.39,82,100,8.18,MV,1662084261
278,mount gambier,-37.8333,140.7667,283.55,59,98,3.79,AU,1662084262
279,vila velha,-20.3297,-40.2925,290.9,87,40,1.03,BR,1662084262
280,tungkang,NA,NA,NA,NA,NA,NA,NA,NA
281,mahebourg,-20.4081,57.7,293.31,68,40,3.09,MU,1662084263
282,tura,25.5198,90.2201,298.16,95,91,2.42,IN,1662084263
283,shu,43.5983,73.7614,295.99,19,0,1.04,KZ,1662084263
284,japura,-0.3167,102.35,298.53,90,85,2.52,ID,1662084264
285,porto santo,33.072,-16.3415,295.36,78,40,2.06,PT,1662084264
286,weymouth,42.2209,-70.9398,293.02,66,3,0.89,US,1662084265
287,vrede,-27.4257,29.1659,281.14,47,0,1.19,ZA,1662084265
288,sisimiut,66.9395,-53.6735,280.99,61,100,6.93,GL,1662084265
289,broken hill,-31.95,141.4333,287.81,49,5,6.89,AU,1662084266
290,belushya guba,NA,NA,NA,NA,NA,NA,NA,NA
291,harrismith,-28.2728,29.1295,280.11,59,1,2.48,ZA,1662084266
292,lorengau,-2.0226,147.2712,302.69,63,100,5.72,PG,1662084267
293,ancud,-41.8697,-73.8203,279.39,80,4,2.19,CL,1662084267
294,kamenka,51.3223,42.7678,282.74,60,2,3.03,RU,1662084267
295,husavik,66.0449,-17.3389,280.4,89,100,5.66,IS,1662084268
296,rocha,-34.4833,-54.3333,285.88,99,100,1.02,UY,1662084268
297,vaitupu,NA,NA,NA,NA,NA,NA,NA,NA
298,beruwala,6.4788,79.9828,298.9,85,22,4.16,LK,1662084269
299,shimoda,34.6667,138.95,299.35,81,29,1.82,JP,1662084269
300,lephepe,NA,NA,NA,NA,NA,NA,NA,NA
301,juneau,58.3019,-134.4197,286.05,96,100,2.17,US,1662084037
302,attawapiskat,NA,NA,NA,NA,NA,NA,NA,NA
303,concarneau,47.875,-3.9225,290.59,95,90,2.58,FR,1662084270
304,grindavik,63.8424,-22.4338,280.41,93,0,4.12,IS,1662084270
305,paamiut,61.994,-49.6678,281.66,79,0,6.64,GL,1662084271
306,sistranda,63.7256,8.834,281.13,75,100,1.52,NO,1662084271
307,kholmy,51.871,32.6006,277.97,75,6,2.34,UA,1662084271
308,nova olimpia,-14.7972,-57.2881,299.92,30,0,2.15,BR,1662084272
309,batagay,67.6333,134.6333,282.42,53,100,1.71,RU,1662084272
310,mabai,23.0128,104.4508,294.28,81,54,0.25,CN,1662084273
311,kavaratti,10.5669,72.642,298.48,90,100,7.89,IN,1662084273
312,gat,31.61,34.7642,298.53,100,4,1.73,IL,1662084273
313,sao felix do xingu,-6.6447,-51.995,297.75,41,2,0.96,BR,1662084041
314,san carlos,9.6612,-68.5827,295.85,95,26,1.46,VE,1662084274
315,puerto narino,-3.7703,-70.3831,298.89,74,100,0.62,CO,1662084274
316,alofi,-19.0595,-169.9187,300.09,61,75,4.63,NU,1662084275
317,amderma,NA,NA,NA,NA,NA,NA,NA,NA
318,saleaula,NA,NA,NA,NA,NA,NA,NA,NA
319,zhigansk,66.7697,123.3711,278.53,91,100,4.99,RU,1662084275
320,goma,-1.6792,29.2228,289.28,85,59,1.19,CD,1662084276
321,burgeo,47.6167,-57.6152,293,99,94,0.39,CA,1662084276
322,walvis bay,-22.9575,14.5053,284.68,100,6,2.57,NA,1662083977
323,srednekolymsk,67.45,153.6833,289.67,40,100,5.96,RU,1662084277
324,bathsheba,13.2167,-59.5167,297.49,94,40,2.06,BB,1662084277
325,faya,18.3851,42.4509,290.44,33,1,2.55,SA,1662084277
326,lar gerd,NA,NA,NA,NA,NA,NA,NA,NA
327,manaus,-3.1019,-60.025,300.42,78,0,2.06,BR,1662084008
328,kungurtug,50.5994,97.5228,288.16,52,14,0.29,RU,1662084278
329,zile,40.3031,35.8864,292.12,91,98,1.29,TR,1662084278
330,nome,64.5011,-165.4064,286.02,82,75,3.6,US,1662084254
331,chapais,49.7834,-74.8492,276.93,95,7,1.98,CA,1662084279
332,kahului,20.8947,-156.47,300.91,74,32,3.13,US,1662084010
333,durban,-29.8579,31.0292,288.11,84,4,0.45,ZA,1662084245
334,goundam,16.4145,-3.6708,300.38,62,100,1.79,ML,1662084280
335,libertad,8.9442,125.5019,303.51,67,99,3.23,PH,1662084280
336,bondo,3.8146,23.6866,292.66,100,99,0.9,CD,1662084280
337,semey,50.4111,80.2275,292.27,45,0,6,KZ,1662084281
338,tottori,35.5,134.2333,296.26,87,100,3.55,JP,1662084008
339,buraydah,26.326,43.975,302.44,16,69,2.95,SA,1662084281
340,ukiah,39.1502,-123.2078,307.4,19,0,1.54,US,1662084259
341,parchim,53.4263,11.8488,284.31,75,3,3.55,DE,1662084282
342,tommot,58.9564,126.2925,283.17,63,66,6.14,RU,1662084282
343,oromocto,45.8351,-66.4792,289.77,63,3,2.24,CA,1662084282
344,banda aceh,5.5577,95.3222,301.16,73,96,5.12,ID,1662084283
345,pryazha,61.6926,33.6216,279.27,88,100,4.87,RU,1662084283
346,vila franca do campo,37.7167,-25.4333,295.48,88,100,2.61,PT,1662084284
347,sorong,-0.8833,131.25,301.44,74,99,2.39,ID,1662084284
348,umm lajj,25.0213,37.2685,302.11,80,56,2.36,SA,1662084284
349,innisfail,-17.5333,146.0333,294.97,99,100,2.23,AU,1662084285
350,kaitangata,-46.2817,169.8464,287.07,73,100,1.2,NZ,1662084285
351,inhambane,-23.865,35.3833,289.62,65,55,1.51,MZ,1662084285
352,mae sot,16.7167,98.5667,301.3,92,89,0.45,TH,1662084286
353,vastervik,NA,NA,NA,NA,NA,NA,NA,NA
354,yining,29.0361,114.5636,300.34,57,10,2.61,CN,1662084286
355,goderich,43.7501,-81.7165,291.99,58,0,5.24,CA,1662084098
356,namatanai,-3.6667,152.4333,302,69,100,3.51,PG,1662084287
357,cabo san lucas,22.8909,-109.9124,302.32,83,100,4.47,MX,1662084095
358,marsa matruh,31.3525,27.2453,298.36,74,0,3.5,EG,1662084287
359,montrose,38.4166,-108.2673,297.82,20,4,1.43,US,1662084288
360,atbasar,51.8,68.3333,295.64,35,19,2.86,KZ,1662084288
361,wasilla,61.5814,-149.4394,287.6,86,100,4.63,US,1662084240
362,pitimbu,-7.4706,-34.8086,296.48,84,26,5.97,BR,1662084289
363,timizart,36.8,4.2667,300.09,41,100,2.52,DZ,1662084289
364,verkhnyaya inta,65.9811,60.3094,280.95,75,100,9.74,RU,1662084289
365,tayu,-6.5397,111.0518,302.32,66,5,4.1,ID,1662084290
366,raxaul,26.9833,84.85,300.6,80,97,1.25,IN,1662084290
367,zhezkazgan,47.8043,67.7144,290.14,51,0,3,KZ,1662084291
368,mogadishu,2.0371,45.3438,297.39,79,86,7.57,SO,1662084011
369,porto walter,-8.2686,-72.7439,298.21,55,32,1.4,BR,1662084291
370,along,28.1667,94.7667,297.06,98,100,0.35,IN,1662084291
371,carauari,-4.8828,-66.8958,298.22,63,9,0.93,BR,1662084292
372,kloulklubed,7.0419,134.2556,303.43,72,95,4.12,PW,1662084292
373,merauke,-8.4667,140.3333,299.35,83,98,1.46,ID,1662084293
374,praia da vitoria,38.7333,-27.0667,294.68,87,57,5.17,PT,1662084293
375,orneta,54.1148,20.1333,281.97,82,14,0.9,PL,1662084293
376,athabasca,54.7169,-113.2854,288.72,47,22,2.62,CA,1662084067
377,komsomolskiy,40.4272,71.7189,292.55,42,0,3.09,UZ,1662084294
378,listvyagi,53.6772,86.951,289.01,79,82,2.86,RU,1662084294
379,te anau,-45.4167,167.7167,288.07,54,29,2.37,NZ,1662084295
380,lira,2.235,32.9097,290.17,95,38,0.14,UG,1662084295
381,janakpur,26.7183,85.9065,300.81,81,90,1.57,NP,1662084295
382,zhaocheng,NA,NA,NA,NA,NA,NA,NA,NA
383,baykit,61.67,96.37,280.39,77,78,0.95,RU,1662084296
384,kalmunai,7.4167,81.8167,299.63,79,49,1.5,LK,1662084296
385,ternate,0.8,127.4,301.98,70,100,1.4,ID,1662084297
386,narkevychi,49.5172,26.6418,282.03,68,100,2.58,UA,1662084297
387,miri,4.4148,114.0089,299.24,86,100,2.34,MY,1662084020
388,alexandria,31.2156,29.9553,299.03,67,0,3.33,EG,1662084297
389,saint george,37.1041,-113.5841,312.56,13,0,4.12,US,1662084298
390,broome,42.2506,-75.833,287.36,86,0,2.57,US,1662084298
391,terney,45.0503,136.6092,294.16,41,0,3.19,RU,1662084299
392,begoro,6.3871,-0.3774,293.49,96,99,2.25,GH,1662084299
393,sivaki,52.6333,126.75,291.16,55,100,3.97,RU,1662084299
394,saint-augustin,51.226,-58.6502,288.68,91,100,4.21,CA,1662084300
395,san policarpo,12.1791,125.5072,303.75,67,100,4.6,PH,1662084300
396,sedelnikovo,NA,NA,NA,NA,NA,NA,NA,NA
397,anupgarh,29.1911,73.2086,305.17,42,0,3.74,IN,1662084301
398,andarab,NA,NA,NA,NA,NA,NA,NA,NA
399,marcona,NA,NA,NA,NA,NA,NA,NA,NA
400,babanusah,NA,NA,NA,NA,NA,NA,NA,NA
401,ushtobe,45.2514,77.9838,297.14,18,6,1.59,KZ,1662084302
402,balabac,7.9868,117.0645,302,74,100,2.62,PH,1662084302
403,pampa,35.5362,-100.9599,301.68,69,0,3.09,US,1662084302
404,margate,51.3813,1.3862,293.32,77,97,1.34,GB,1662084303
405,bolungarvik,NA,NA,NA,NA,NA,NA,NA,NA
406,katsuura,35.1333,140.3,299.16,80,86,2.16,JP,1662084304
407,novyy urengoy,66.0833,76.6333,279.33,91,100,3.95,RU,1662084304
408,puerto leguizamo,-0.1934,-74.7819,295.81,92,89,0.5,CO,1662084304
409,collingwood,44.4834,-80.2164,290.77,80,0,2.75,CA,1662084305
410,laredo,27.5064,-99.5075,305.29,66,75,6.17,US,1662084305
411,ostrovnoy,68.0531,39.5131,281.44,83,100,10.89,RU,1662084306
412,mount isa,-20.7333,139.5,291.02,77,100,6.69,AU,1662084306
413,omboue,-1.5746,9.2618,296.36,85,100,3.64,GA,1662084306
414,riyadh,24.6877,46.7219,299.23,17,3,2.95,SA,1662084307
415,oktyabrskiy,54.4815,53.471,290.73,77,100,3.01,RU,1662084307
416,singaraja,-8.112,115.0882,302.57,61,5,0.98,ID,1662084308
417,alyangula,-13.8483,136.4192,300.81,65,11,5.91,AU,1662084308
418,saint anthony,45.0205,-93.218,300.94,73,0,4.63,US,1662084309
419,sao filipe,14.8961,-24.4956,298.86,86,99,4.39,CV,1662084309
420,kichera,55.9375,110.0997,283.78,88,100,0.36,RU,1662084309
421,dwarka,22.2394,68.9678,300.11,78,100,3.45,IN,1662084282
422,lodwar,3.1191,35.5973,298.02,51,2,5.88,KE,1662084152
423,lircay,-12.9896,-74.7205,280.91,85,100,1.29,PE,1662084310
424,simoes,-7.5989,-40.8178,295.16,68,3,5.58,BR,1662084310
425,maceio,-9.6658,-35.7353,294.84,94,75,2.06,BR,1662084206
426,mananjary,-21.2167,48.3333,289.67,86,89,3.39,MG,1662084311
427,dharchula,29.85,80.5333,296.34,84,72,0.4,IN,1662084311
428,mersing,2.4312,103.8405,301.19,76,88,1.64,MY,1662084312
429,hualmay,-11.0964,-77.6139,288.99,79,23,4.71,PE,1662084312
430,mitsamiouli,-11.3847,43.2844,296.32,72,2,4.72,KM,1662084312
431,kuusamo,65.9667,29.1833,277.17,87,0,5.14,FI,1662084313
432,ulaangom,49.9811,92.0667,291.22,41,5,1.55,MN,1662084313
433,port lincoln,-34.7333,135.8667,285.78,51,95,6.01,AU,1662084314
434,buala,-8.145,159.5921,301.3,74,71,2.84,SB,1662084314
435,nesebar,42.7833,27.7333,292.79,78,8,3.33,BG,1662084314
436,samusu,NA,NA,NA,NA,NA,NA,NA,NA
437,puerto quijarro,-17.7833,-57.7667,299.35,30,0,0.94,BO,1662084315
438,half moon bay,37.4636,-122.4286,303.72,83,100,8.23,US,1662084315
439,korla,41.7597,86.1469,296.39,33,0,2.7,CN,1662084029
440,jining,35.405,116.5814,298.93,67,3,2.73,CN,1662084021
441,genhe,50.7833,121.5167,293.36,33,35,4.24,CN,1662084316
442,shadegan,30.6497,48.6647,306.63,14,27,1.45,IR,1662084316
443,praia,14.9215,-23.5087,299.45,89,75,4.63,CV,1662084317
444,paita,-5.0892,-81.1144,290.35,81,17,6.14,PE,1662084317
445,sines,37.9562,-8.8698,290.53,95,5,2.85,PT,1662084318
446,wahiawa,21.5028,-158.0236,302.33,54,0,6.17,US,1662084318
447,puerto colombia,10.9878,-74.9547,299.2,77,100,4.92,CO,1662084318
448,steamboat springs,40.485,-106.8317,299.46,25,0,1.54,US,1662084087
449,mrirt,NA,NA,NA,NA,NA,NA,NA,NA
450,vung tau,10.346,107.0843,301.68,76,82,1.25,VN,1662084114
451,aswan,24.0934,32.907,303.39,26,0,4.97,EG,1662084319
452,pimentel,-6.8367,-79.9342,289.57,84,78,6.32,PE,1662084320
453,great falls,47.5002,-111.3008,301.4,25,40,2.57,US,1662084320
454,odweyne,9.4092,45.064,295.14,45,6,5.81,SO,1662084320
455,mehamn,71.0357,27.8492,280.1,93,75,4.63,NO,1662084321
456,marrakesh,31.6315,-8.0083,297.19,60,40,1.54,MA,1662084321
457,merghindeal,45.9667,24.7333,288.29,85,100,4.42,RO,1662084321
458,la ronge,55.1001,-105.2842,286.64,69,97,8.98,CA,1662084322
459,san jose de guanipa,8.8872,-64.1651,297.34,87,58,2.44,VE,1662084322
460,santa isabel do rio negro,-0.4139,-65.0192,296.98,87,82,1.06,BR,1662084323
461,kholm,59.2667,32.85,278.94,92,100,3.57,RU,1662084323
462,panjab,34.388,67.0233,285.11,32,0,1.6,AF,1662084323
463,nixa,37.0434,-93.2944,298.18,82,100,2.21,US,1662084324
464,bulgan,48.8125,103.5347,289.38,53,81,1.26,MN,1662084324
465,fairhaven,41.6376,-70.9036,294.24,61,0,2.68,US,1662084325
466,kattivakkam,13.2167,80.3167,300.2,77,90,1.32,IN,1662084325
467,moranbah,-22.0016,148.0466,295.91,65,100,6.03,AU,1662084325
468,ilulissat,69.2167,-51.1,279.16,65,100,1.54,GL,1662084147
469,el rusio,14.4667,-86.3667,293.27,99,100,1.13,HN,1662084326
470,loiza,18.4313,-65.8802,301.14,86,40,4.63,PR,1662084326
471,la orilla,17.9833,-102.2333,301.02,78,100,4.81,MX,1662084327
472,kardla,58.9978,22.7492,283.62,76,35,5.23,EE,1662084327
473,aberdeen,57.1437,-2.0981,286.2,93,0,0.51,GB,1662084327
474,san quintin,30.4833,-115.95,297.71,71,4,2.28,MX,1662084327
475,nipawin,53.3668,-104.0009,292.17,42,0,8.23,CA,1662084280
476,samarai,-10.6167,150.6667,300.55,77,90,7.12,PG,1662084328
477,yeniseysk,58.4497,92.1703,280.39,86,100,2.36,RU,1662084328
478,yulara,-25.2406,130.9889,291.63,32,2,9.13,AU,1662084329
479,coahuayana,18.7333,-103.6833,298.99,89,100,0.36,MX,1662084329
480,buchach,49.0625,25.388,285.01,60,99,2.86,UA,1662084329
481,druzhba,52.0428,33.9453,278.65,79,5,3.06,UA,1662084330
482,la palma,33.8464,-118.0467,310.18,66,40,3.09,US,1662084330
483,luanda,-8.8368,13.2343,294.52,86,100,2.85,AO,1662084331
484,boda,4.3189,17.4695,292.66,99,100,1.39,CF,1662084331
485,mana,5.6592,-53.7767,298.83,87,100,4.4,GF,1662084331
486,pokaran,26.9167,71.9167,301.98,69,36,4.29,IN,1662084332
487,plettenberg bay,-34.0527,23.3716,288.02,83,68,3.73,ZA,1662084332
488,ankang,32.68,109.0172,296.08,62,75,1.04,CN,1662084332
489,pathein,16.7833,94.7333,302.24,74,57,2.78,MM,1662084333
490,khonuu,NA,NA,NA,NA,NA,NA,NA,NA
491,mae hong son,19.3003,97.9685,300.06,85,49,0.52,TH,1662084333
492,coquimbo,-29.9533,-71.3436,286.01,83,0,1.41,CL,1662084334
493,tarazona,41.9,-1.7333,293.05,77,12,2.49,ES,1662084334
494,peru,40.7537,-86.0689,296.26,87,0,0,US,1662084334
495,sola,-13.8833,167.55,299.21,79,94,9.95,VU,1662084335
496,kieta,-6.2167,155.6333,302.3,68,30,2.05,PG,1662084335
497,tomatlan,19.9333,-105.25,297.86,91,94,1.24,MX,1662084336
498,palabuhanratu,NA,NA,NA,NA,NA,NA,NA,NA
499,pontes e lacerda,-15.2261,-59.3353,298.75,36,0,0.89,BR,1662084336
500,cotia,-23.6704,-46.9472,292.16,65,0,0.79,BR,1662084336
501,albion,42.2431,-84.753,295.17,82,40,1.54,US,1662084337
502,meyungs,NA,NA,NA,NA,NA,NA,NA,NA
503,mizdah,31.4451,12.9801,297.55,56,47,1.08,LY,1662084337
504,bakchar,57.0186,82.0711,282.59,81,99,4.22,RU,1662084338
505,hofn,64.2539,-15.2082,282.75,78,100,4.32,IS,1662084338
506,somerset east,-32.7217,25.588,290.77,47,26,5.33,ZA,1662084338
507,aflu,NA,NA,NA,NA,NA,NA,NA,NA
508,osa,57.2829,55.4567,288.23,89,100,1.36,RU,1662084339
509,cranbourne,-38.1,145.2833,286.31,67,82,3.58,AU,1662084339
510,zhicheng,30.2956,111.5047,299.13,49,88,3.34,CN,1662084340
511,palauig,15.435,119.9045,300.85,82,100,2.77,PH,1662084340
512,acapulco,16.8634,-99.8901,302.05,79,75,5.14,MX,1662084340
513,tautira,-17.7333,-149.15,298.68,73,22,6.9,PF,1662084065
514,shingu,33.7333,135.9833,301.68,77,28,2.67,JP,1662084341
515,pechenga,69.5259,31.1703,280.85,87,100,8.74,RU,1662084341
516,hastings,50.8552,0.5729,293.33,83,73,3.59,GB,1662084342
517,san ramon,37.7799,-121.978,309.27,44,0,5.14,US,1662084124
518,san-pedro,4.7485,-6.6363,295.26,96,26,1.94,CI,1662084342
519,kars,40.602,43.095,287.4,51,20,1.03,TR,1662084343
520,letka,59.6011,49.4232,279.36,88,72,1.08,RU,1662084343
521,samana,19.2056,-69.3369,298.79,86,14,3.62,DO,1662084343
522,alice springs,-23.7,133.8833,288.9,26,0,8.23,AU,1662084254
523,riohacha,11.5444,-72.9072,299.59,79,100,4.04,CO,1662084259
524,rio gallegos,-51.6226,-69.2181,278.08,80,29,5.44,AR,1662084062
525,paramonga,-10.6667,-77.8333,288.68,83,30,4.58,PE,1662084344
526,mildura,-34.2,142.15,287.63,57,7,7.67,AU,1662084345
527,umzimvubu,NA,NA,NA,NA,NA,NA,NA,NA
528,mahanoro,-19.9,48.8,290.77,75,35,3.8,MG,1662084345
529,portland,45.5234,-122.6762,305.16,37,0,1.79,US,1662083999
530,campina verde,-19.5356,-49.4864,293.97,37,0,2.64,BR,1662084346
531,beisfjord,68.3751,17.5988,278.18,75,14,2.94,NO,1662084346
532,dumalinao,7.8191,123.3694,301.23,76,100,2.96,PH,1662084346
533,florianopolis,-27.6146,-48.5012,291.31,86,75,6.17,BR,1662084347
534,kadykchan,NA,NA,NA,NA,NA,NA,NA,NA
535,ambilobe,-13.2,49.05,289.91,86,0,1.5,MG,1662084347
536,roma,43.2128,-75.4557,285.86,88,0,0.45,US,1662084348
537,ust-kamchatsk,NA,NA,NA,NA,NA,NA,NA,NA
538,guerrero negro,27.9769,-114.0611,298.81,74,84,5.97,MX,1662084348
539,winnemucca,40.973,-117.7357,307.18,9,0,2.06,US,1662084349
540,chokwe,-24.5333,32.9833,286.48,90,0,1.38,MZ,1662084349
541,rundu,-17.9333,19.7667,286.5,45,0,2.92,NA,1662084349
542,nouna,12.7333,-3.8667,296.21,92,82,3.1,BF,1662084350
543,kovur,14.4833,79.9833,300.98,74,22,1.98,IN,1662084350
544,namibe,-15.1961,12.1522,289.44,89,97,2.61,AO,1662084350
545,sol-iletsk,51.1631,54.9918,294.14,25,51,3.11,RU,1662084351
546,manzhouli,49.6,117.4333,296.56,30,77,4.58,CN,1662084351
547,jibuti,11.5,42.5,299.95,69,38,1.76,DJ,1662084352
548,kalemie,-5.9475,29.1947,295.53,62,36,1.39,CD,1662084352
549,palmer,42.1584,-72.3287,291.62,75,0,3.6,US,1662084352
550,bolshoye sorokino,NA,NA,NA,NA,NA,NA,NA,NA
551,brae,60.3964,-1.353,284.44,92,96,2.75,GB,1662084353
552,manaure,11.7751,-72.4445,301.68,69,100,7.14,CO,1662084353
553,manta,-0.95,-80.7333,295.03,83,100,3.6,EC,1662084354
554,paliyad,22.25,71.5667,300.14,78,100,3.86,IN,1662084354
555,melo,-32.3667,-54.1833,288.81,99,100,0.73,UY,1662084354
556,valparaiso,-33.0393,-71.6273,286.48,91,0,4.63,CL,1662084211
557,ambovombe,-25.1667,46.0833,291.5,62,83,6.44,MG,1662084355
558,bilopillya,51.1502,34.3129,279.78,65,2,2.59,UA,1662084355
559,conchagua,13.3078,-87.8647,296.45,92,100,1.73,SV,1662084356
560,mantua,45.1667,10.7833,292.49,80,59,0.89,IT,1662084356
561,hambantota,6.1241,81.1185,297.34,100,40,3.09,LK,1662084356
562,nyurba,63.2842,118.3319,280.74,71,95,2.77,RU,1662084357
563,liverpool,53.4106,-2.9779,289.47,84,3,3.09,GB,1662084357
564,teknaf,20.8624,92.3058,301.1,83,95,1.22,BD,1662084357
565,edd,13.9297,41.6925,305.58,63,96,1.81,ER,1662084358
566,homer,59.6425,-151.5483,288.6,69,75,2.06,US,1662084358
567,wangkui,46.8333,126.5,293.7,44,1,5.92,CN,1662084359
568,sarkand,45.41,79.9186,297.04,21,5,1.23,KZ,1662084359
569,douentza,14.9951,-2.9517,297.77,80,100,0.95,ML,1662084359
570,bantogon,6.5333,124.0333,302.57,64,100,2.41,PH,1662084360
571,ko samui,9.5357,99.9357,301.49,76,100,4.98,TH,1662084360
572,nabisar,25.0685,69.6419,300.42,79,100,4.48,PK,1662084360
573,marzuq,14.4,46.4667,297.07,67,4,1.18,YE,1662084361
574,verkhnevilyuysk,63.4453,120.3167,281.35,61,100,2.68,RU,1662084361
575,rey bouba,8.6724,14.1786,293.93,97,100,1.44,CM,1662084362
576,santa maria,-29.6842,-53.8069,291.76,82,40,2.06,BR,1662084186
577,vryburg,-26.9566,24.7284,285.51,45,0,4.66,ZA,1662084362
578,lumphat,13.4878,106.9816,301.61,81,81,0.88,KH,1662084363
579,san cristobal,7.7669,-72.225,292.54,97,59,0.71,VE,1662084092
580,atambua,-9.1061,124.8925,302.62,49,2,1.32,ID,1662084363
581,abadan,30.3392,48.3043,306,15,7,0.76,IR,1662084364
582,araripe,-7.2125,-40.0461,292.61,79,0,5.54,BR,1662084364
583,guangyuan,32.442,105.823,293.56,88,100,0.42,CN,1662084364
584,diveyevo,55.0433,43.2418,278.49,83,6,3.21,RU,1662084365
585,itoman,26.1247,127.6694,305.16,73,75,10.29,JP,1662084190
586,aripuana,-9.1667,-60.6333,298.83,38,0,0.47,BR,1662084366
587,cornelio procopio,-23.1811,-50.6467,290.25,54,0,2.18,BR,1662084121
588,plouzane,48.3833,-4.6167,290.18,100,40,1.03,FR,1662084366
589,ust-tsilma,65.441,52.1498,279.5,95,100,4.12,RU,1662084367
590,tamalin,21.35,-97.8,298.09,89,54,2.14,MX,1662084367
591,richards bay,-28.783,32.0377,289.37,67,0,6.3,ZA,1662084367
592,luganville,-15.5333,167.1667,298.95,75,100,4.84,VU,1662084368
593,shiyan,32.6475,110.7781,298.19,52,19,1.84,CN,1662084368
594,vokhma,58.9303,46.7586,277.96,77,28,2.16,RU,1662084368
595,mackenzie,55.2999,-123.1698,293.69,42,64,3.02,CA,1662084308
596,chiredzi,-21.05,31.6667,284.66,80,0,0.89,ZW,1662084369
597,kincardine,56.0667,-3.7167,286.29,91,46,1.61,GB,1662084369
598,hirara,24.8,125.2833,301.79,83,23,14.76,JP,1662084370
599,gamba,-2.65,10,295.93,83,100,2.6,GA,1662084370
600,keokuk,40.3973,-91.3849,297.64,69,100,3.09,US,1662084371
601,mareeba,-17,145.4333,295.08,91,100,0.93,AU,1662084371
602,noumea,-22.2763,166.4572,299.14,99,48,7.6,NC,1662084371
603,tibacuy,4.3511,-72.4564,298.19,79,10,2.07,CO,1662084372
604,saint-francois,46.4154,3.9054,285.84,88,0,0,FR,1662084372
605,vilyuysk,63.7553,121.6247,281.4,61,100,2.12,RU,1662084373
606,funadhoo,6.15,73.2667,299.69,81,100,8.72,MV,1662084373
607,kabare,-2.4683,28.8242,288.54,91,63,0.89,CD,1662084373
608,abu zabad,12.35,29.25,297.29,75,97,2.96,SD,1662084374
609,ivanava,52.1451,25.5365,279.06,79,7,0.43,BY,1662084374
610,oskarshamn,57.2645,16.4484,282.03,84,23,3.22,SE,1662084375
611,matanza,7.3223,-73.0152,288.5,92,32,1.93,CO,1662084375
612,muroto,33.2833,134.15,300.54,80,58,6.21,JP,1662084375
613,salalah,17.0151,54.0924,298.2,88,75,1.03,OM,1662084376
